{"generated":"2026-07-17T20:01:44.985Z","fuel":{"date":"2026-07-17","samples":{"gasolina95":257,"gasoleo":559,"gpl":437},"gasolina95":{"price":1.826,"prev":1.825,"delta":0.001},"gasoleo":{"price":1.805,"prev":1.805,"delta":0},"gpl":{"price":0.961,"prev":0.961,"delta":0},"week":{"gasolina95":0.014,"gasoleo":0.023,"gpl":0},"weekFrom":"2026-07-11","history":[{"date":"2026-06-16","gasolina95":1.834,"gasoleo":1.814,"gpl":0.995},{"date":"2026-06-22","gasolina95":1.81,"gasoleo":1.797,"gpl":0.992},{"date":"2026-07-04","gasolina95":1.803,"gasoleo":1.773,"gpl":0.978},{"date":"2026-07-05","gasolina95":1.804,"gasoleo":1.772,"gpl":0.977},{"date":"2026-07-06","gasolina95":1.809,"gasoleo":1.776,"gpl":0.965},{"date":"2026-07-07","gasolina95":1.805,"gasoleo":1.778,"gpl":0.964},{"date":"2026-07-08","gasolina95":1.807,"gasoleo":1.777,"gpl":0.963},{"date":"2026-07-09","gasolina95":1.807,"gasoleo":1.778,"gpl":0.963},{"date":"2026-07-10","gasolina95":1.809,"gasoleo":1.78,"gpl":0.962},{"date":"2026-07-11","gasolina95":1.812,"gasoleo":1.782,"gpl":0.961},{"date":"2026-07-12","gasolina95":1.813,"gasoleo":1.782,"gpl":0.961},{"date":"2026-07-13","gasolina95":1.82,"gasoleo":1.785,"gpl":0.962},{"date":"2026-07-14","gasolina95":1.824,"gasoleo":1.804,"gpl":0.962},{"date":"2026-07-15","gasolina95":1.824,"gasoleo":1.804,"gpl":0.961},{"date":"2026-07-16","gasolina95":1.825,"gasoleo":1.805,"gpl":0.961},{"date":"2026-07-17","gasolina95":1.826,"gasoleo":1.805,"gpl":0.961}]},"electricity":{"date":"2026-07-17","omie":13.75,"bill":25,"prevBill":24.7,"min":9.8,"max":17.5,"trend":"up"},"gas":{"price":6.47,"period":"2025/26","label":"Tarifa regulada · escalão 1","src":"ERSE"},"ipma":{"warnings":{},"areas":[{"code":"AVR","name":"Aveiro","lat":40.6413,"lon":-8.6535},{"code":"BJA","name":"Beja","lat":38.02,"lon":-7.87},{"code":"BRG","name":"Braga","lat":41.5475,"lon":-8.4227},{"code":"BGC","name":"Bragança","lat":41.8076,"lon":-6.7606},{"code":"CBO","name":"Castelo Branco","lat":39.8217,"lon":-7.4957},{"code":"CBR","name":"Coimbra","lat":40.2081,"lon":-8.4194},{"code":"EVR","name":"Évora","lat":38.5701,"lon":-7.9104},{"code":"FAR","name":"Faro","lat":37.0146,"lon":-7.9331},{"code":"GDA","name":"Guarda","lat":40.5379,"lon":-7.2647},{"code":"LRA","name":"Leiria","lat":39.7473,"lon":-8.8069},{"code":"LSB","name":"Lisboa","lat":38.766,"lon":-9.1286},{"code":"PTG","name":"Portalegre","lat":39.29,"lon":-7.42},{"code":"PTO","name":"Porto","lat":41.158,"lon":-8.6294},{"code":"STM","name":"Santarém","lat":39.2,"lon":-8.74},{"code":"STB","name":"Setúbal","lat":38.5246,"lon":-8.8856},{"code":"VCT","name":"Viana do Castelo","lat":41.6952,"lon":-8.8365},{"code":"VRL","name":"Vila Real","lat":41.3053,"lon":-7.744},{"code":"VIS","name":"Viseu","lat":40.6585,"lon":-7.912},{"code":"MCS","name":"Funchal","lat":32.6485,"lon":-16.9084},{"code":"MPS","name":"Porto Santo","lat":33.07,"lon":-16.34},{"code":"AOR","name":"Vila do Porto","lat":36.9563,"lon":-25.1409},{"code":"ACE","name":"Angra do Heroísmo","lat":38.67,"lon":-27.22},{"code":"AOC","name":"Santa Cruz das Flores","lat":39.45,"lon":-31.13}]},"weather":{"city":"Leiria","lat":39.7436,"lon":-8.8071,"area":"LRA","temp":21,"feels":21,"humidity":81,"wind":13,"code":3,"isDay":1,"uv":8,"sunrise":"2026-07-17T06:21","sunset":"2026-07-17T21:01","days":[{"date":"2026-07-17","min":19,"max":26,"code":3,"pop":0,"uv":8},{"date":"2026-07-18","min":19,"max":26,"code":3,"pop":0,"uv":8},{"date":"2026-07-19","min":18,"max":27,"code":3,"pop":0,"uv":8},{"date":"2026-07-20","min":19,"max":26,"code":45,"pop":0,"uv":8},{"date":"2026-07-21","min":18,"max":28,"code":45,"pop":0,"uv":8},{"date":"2026-07-22","min":18,"max":27,"code":2,"pop":0,"uv":8}]}}