{"generated":"2026-06-15T13:31:30.859Z","fuel":{"date":"2026-06-15","samples":{"gasolina95":259,"gasoleo":450,"gpl":428},"gasolina95":{"price":1.834,"prev":1.832,"delta":0.002},"gasoleo":{"price":1.818,"prev":1.823,"delta":-0.005},"gpl":{"price":0.995,"prev":0.997,"delta":-0.002},"week":{"gasolina95":0.002,"gasoleo":-0.005,"gpl":-0.002},"weekFrom":"2026-06-14","history":[{"date":"2026-06-14","gasolina95":1.832,"gasoleo":1.823,"gpl":0.997},{"date":"2026-06-15","gasolina95":1.834,"gasoleo":1.818,"gpl":0.995}]},"electricity":{"date":"2026-06-15","omie":6.07,"bill":14.6,"prevBill":12.6,"min":-0.2,"max":13.7,"trend":"up"},"gas":{"price":6.47,"period":"2025/26","label":"Tarifa regulada · escalão 1","src":"ERSE"},"ipma":{"warnings":{"BGC":[{"type":"Precipitação","level":"yellow","start":"2026-06-15T12:00:00","end":"2026-06-15T21:00:00","text":"Aguaceiros por vezes forte e acompanhados de trovoada."},{"type":"Trovoada","level":"yellow","start":"2026-06-15T12:00:00","end":"2026-06-15T21:00:00","text":"Frequentes e dispersas."}],"VIS":[{"type":"Precipitação","level":"yellow","start":"2026-06-15T12:00:00","end":"2026-06-15T21:00:00","text":"Aguaceiros por vezes forte e acompanhados de trovoada."},{"type":"Trovoada","level":"yellow","start":"2026-06-15T12:00:00","end":"2026-06-15T21:00:00","text":"Frequentes e dispersas."}],"GDA":[{"type":"Precipitação","level":"yellow","start":"2026-06-15T12:00:00","end":"2026-06-15T21:00:00","text":"Aguaceiros por vezes forte e acompanhados de trovoada."},{"type":"Trovoada","level":"yellow","start":"2026-06-15T12:00:00","end":"2026-06-15T21:00:00","text":"Frequentes e dispersas."}],"VRL":[{"type":"Precipitação","level":"yellow","start":"2026-06-15T12:00:00","end":"2026-06-15T21:00:00","text":"Aguaceiros por vezes forte e acompanhados de trovoada."},{"type":"Trovoada","level":"yellow","start":"2026-06-15T12:00:00","end":"2026-06-15T21:00:00","text":"Frequentes e dispersas."}],"CBO":[{"type":"Precipitação","level":"yellow","start":"2026-06-15T12:00:00","end":"2026-06-15T21:00:00","text":"Aguaceiros por vezes forte e acompanhados de trovoada."},{"type":"Trovoada","level":"yellow","start":"2026-06-15T12:00:00","end":"2026-06-15T21:00:00","text":"Frequentes e dispersas."}]},"areas":[{"code":"AVR","name":"Aveiro","lat":40.6413,"lon":-8.6535},{"code":"BJA","name":"Beja","lat":38.02,"lon":-7.87},{"code":"BRG","name":"Braga","lat":41.5475,"lon":-8.4227},{"code":"BGC","name":"Bragança","lat":41.8076,"lon":-6.7606},{"code":"CBO","name":"Castelo Branco","lat":39.8217,"lon":-7.4957},{"code":"CBR","name":"Coimbra","lat":40.2081,"lon":-8.4194},{"code":"EVR","name":"Évora","lat":38.5701,"lon":-7.9104},{"code":"FAR","name":"Faro","lat":37.0146,"lon":-7.9331},{"code":"GDA","name":"Guarda","lat":40.5379,"lon":-7.2647},{"code":"LRA","name":"Leiria","lat":39.7473,"lon":-8.8069},{"code":"LSB","name":"Lisboa","lat":38.766,"lon":-9.1286},{"code":"PTG","name":"Portalegre","lat":39.29,"lon":-7.42},{"code":"PTO","name":"Porto","lat":41.158,"lon":-8.6294},{"code":"STM","name":"Santarém","lat":39.2,"lon":-8.74},{"code":"STB","name":"Setúbal","lat":38.5246,"lon":-8.8856},{"code":"VCT","name":"Viana do Castelo","lat":41.6952,"lon":-8.8365},{"code":"VRL","name":"Vila Real","lat":41.3053,"lon":-7.744},{"code":"VIS","name":"Viseu","lat":40.6585,"lon":-7.912},{"code":"MCS","name":"Funchal","lat":32.6485,"lon":-16.9084},{"code":"MPS","name":"Porto Santo","lat":33.07,"lon":-16.34},{"code":"AOR","name":"Vila do Porto","lat":36.9563,"lon":-25.1409},{"code":"ACE","name":"Angra do Heroísmo","lat":38.67,"lon":-27.22},{"code":"AOC","name":"Santa Cruz das Flores","lat":39.45,"lon":-31.13}]},"weather":{"city":"Leiria","lat":39.7436,"lon":-8.8071,"area":"LRA","temp":22,"feels":23,"humidity":72,"wind":15,"code":2,"isDay":1,"uv":8,"sunrise":"2026-06-15T06:06","sunset":"2026-06-15T21:04","days":[{"date":"2026-06-15","min":16,"max":22,"code":45,"pop":0,"uv":8},{"date":"2026-06-16","min":16,"max":24,"code":3,"pop":0,"uv":8},{"date":"2026-06-17","min":16,"max":24,"code":3,"pop":0,"uv":8},{"date":"2026-06-18","min":16,"max":25,"code":3,"pop":0,"uv":8},{"date":"2026-06-19","min":17,"max":26,"code":3,"pop":3,"uv":8},{"date":"2026-06-20","min":16,"max":26,"code":45,"pop":0,"uv":8}]}}